{
    "type": "FeatureCollection",
    "features": [
        {
            "type": "Feature",
            "properties": {
                "name": "Chamonix",
                "year": 1924
            },
            "geometry": {
                "type": "Point",
                "coordinates": [
                    6.86981,
                    45.925461
                ]
            }
        },
        {
            "type": "Feature",
            "properties": {
                "name": "St. Moritz",
                "year": [
                    1928,
                    1948
                ]
            },
            "geometry": {
                "type": "Point",
                "coordinates": [
                    9.83844,
                    46.497059
                ]
            }
        },
        {
            "type": "Feature",
            "properties": {
                "name": "Lake Placid",
                "year": [
                    1932,
                    1980
                ]
            },
            "geometry": {
                "type": "Point",
                "coordinates": [
                    -81.360573,
                    27.29351
                ]
            }
        },
        {
            "type": "Feature",
            "properties": {
                "name": "Garmisch-Partenkirchen",
                "year": 1936
            },
            "geometry": {
                "type": "Point",
                "coordinates": [
                    11.089285,
                    47.493923
                ]
            }
        },
        {
            "type": "Feature",
            "properties": {
                "name": "Oslo",
                "year": 1952
            },
            "geometry": {
                "type": "Point",
                "coordinates": [
                    10.752245,
                    59.913868
                ]
            }
        },
        {
            "type": "Feature",
            "properties": {
                "name": "Cortina d'Ampezzo",
                "year": 1956
            },
            "geometry": {
                "type": "Point",
                "coordinates": [
                    12.138922,
                    46.537384
                ]
            }
        },
        {
            "type": "Feature",
            "properties": {
                "name": "Squaw Valley",
                "year": 1960
            },
            "geometry": {
                "type": "Point",
                "coordinates": [
                    -120.23855,
                    39.16488
                ]
            }
        },
        {
            "type": "Feature",
            "properties": {
                "name": "Innsbruck",
                "year": [
                    1964,
                    1976
                ]
            },
            "geometry": {
                "type": "Point",
                "coordinates": [
                    11.3913,
                    47.268
                ]
            }
        },
        {
            "type": "Feature",
            "properties": {
                "name": "Grenoble",
                "year": 1968
            },
            "geometry": {
                "type": "Point",
                "coordinates": [
                    5.73201,
                    45.194
                ]
            }
        },
        {
            "type": "Feature",
            "properties": {
                "name": "Sapporo",
                "year": 1972
            },
            "geometry": {
                "type": "Point",
                "coordinates": [
                    141.35022,
                    43.05801
                ]
            }
        },
        {
            "type": "Feature",
            "properties": {
                "name": "Sarajevo",
                "year": 1984
            },
            "geometry": {
                "type": "Point",
                "coordinates": [
                    18.412342,
                    43.858185
                ]
            }
        },
        {
            "type": "Feature",
            "properties": {
                "name": "Calgary",
                "year": 1988
            },
            "geometry": {
                "type": "Point",
                "coordinates": [
                    -114.06302,
                    51.04522
                ]
            }
        },
        {
            "type": "Feature",
            "properties": {
                "name": "Albertville",
                "year": 1992
            },
            "geometry": {
                "type": "Point",
                "coordinates": [
                    6.380882,
                    45.674797
                ]
            }
        },
        {
            "type": "Feature",
            "properties": {
                "name": "Lillehammer",
                "year": 1994
            },
            "geometry": {
                "type": "Point",
                "coordinates": [
                    10.46365,
                    61.11499
                ]
            }
        },
        {
            "type": "Feature",
            "properties": {
                "name": "Nagano",
                "year": 1998
            },
            "geometry": {
                "type": "Point",
                "coordinates": [
                    138.19122,
                    36.64851
                ]
            }
        },
        {
            "type": "Feature",
            "properties": {
                "name": "Salt Lake City",
                "year": 2002
            },
            "geometry": {
                "type": "Point",
                "coordinates": [
                    -110.74218749999999,
                    40.76031
                ]
            }
        },
        {
            "type": "Feature",
            "properties": {
                "name": "Turin",
                "year": 2006
            },
            "geometry": {
                "type": "Point",
                "coordinates": [
                    7.70493,
                    45.06968
                ]
            }
        },
        {
            "type": "Feature",
            "properties": {
                "name": "Vancouver",
                "year": 2010
            },
            "geometry": {
                "type": "Point",
                "coordinates": [
                    -123.11336,
                    49.26038
                ]
            }
        },
        {
            "type": "Feature",
            "properties": {
                "name": "Sochi",
                "year": 2014
            },
            "geometry": {
                "type": "Point",
                "coordinates": [
                    39.72447,
                    43.61714
                ]
            }
        },
        {
            "type": "Feature",
            "properties": {
                "name": "Pyeongchang",
                "year": 2018
            },
            "geometry": {
                "type": "Point",
                "coordinates": [
                    128.38998,
                    37.370476
                ]
            }
        },
        {
            "type": "Feature",
            "properties": {
                "name": "Beijing",
                "year": 2022
            },
            "geometry": {
                "type": "Point",
                "coordinates": [
                    116.408195,
                    39.904667
                ]
            }
        }
    ]
}